[{"facility ":"posuere cubilia","lat":48.4333,"long":-123.3533,"street_number":"64","street_address":"Kennedy","phone":"(204) 2026253","meals":false,"carts":true,"pets":true},
{"facility ":"pretium iaculis","lat":48.4291,"long":-123.3553,"street_number":"0982","street_address":"Riverside","phone":"(739) 1920458","meals":false,"carts":true,"pets":true},
{"facility ":"dui proin","lat":48.4315,"long":-123.3427,"street_number":"1","street_address":"Ohio","phone":"(155) 4619480","meals":true,"carts":false,"pets":false},
{"facility ":"ut","lat":48.4256,"long":-123.3392,"street_number":"501","street_address":"Trailsway","phone":"(428) 2967899","meals":false,"carts":true,"pets":false},
{"facility ":"pede","lat":48.416,"long":-123.3608,"street_number":"075","street_address":"Declaration","phone":"(391) 1519699","meals":false,"carts":false,"pets":true},
{"facility ":"in porttitor","lat":48.4344,"long":-123.3625,"street_number":"8","street_address":"Chive","phone":"(114) 5418405","meals":false,"carts":true,"pets":true},
{"facility ":"justo","lat":48.4148,"long":-123.3617,"street_number":"5","street_address":"Holy Cross","phone":"(493) 5089103","meals":true,"carts":false,"pets":false},
{"facility ":"curabitur at","lat":48.4304,"long":-123.3475,"street_number":"607","street_address":"Fisk","phone":"(188) 8856071","meals":true,"carts":false,"pets":true},
{"facility ":"rutrum ac","lat":48.4235,"long":-123.3477,"street_number":"06","street_address":"Schlimgen","phone":"(736) 3499887","meals":true,"carts":false,"pets":true},
{"facility ":"luctus et","lat":48.4353,"long":-123.3622,"street_number":"3","street_address":"Forest","phone":"(446) 9175777","meals":false,"carts":false,"pets":true},
{"facility ":"est risus","lat":48.4377,"long":-123.3347,"street_number":"31031","street_address":"Westerfield","phone":"(407) 5176935","meals":true,"carts":false,"pets":false},
{"facility ":"morbi sem","lat":48.4265,"long":-123.3582,"street_number":"40816","street_address":"Londonderry","phone":"(350) 7306813","meals":false,"carts":false,"pets":false},
{"facility ":"vel","lat":48.4183,"long":-123.3591,"street_number":"74","street_address":"Del Mar","phone":"(870) 1728836","meals":true,"carts":true,"pets":true},
{"facility ":"egestas metus","lat":48.419,"long":-123.3502,"street_number":"07","street_address":"Division","phone":"(784) 1753043","meals":false,"carts":false,"pets":false},
{"facility ":"eget","lat":48.4294,"long":-123.3585,"street_number":"23","street_address":"Northland","phone":"(569) 5903211","meals":false,"carts":true,"pets":true}]